FMT, 128, 89, FMT, BBnNZ, Type,Length,Name,Format,Columns
FMT, 140, 29, AHR2, QccCfLL, TimeUS,Roll,Pitch,Yaw,Alt,Lat,Lng
FMT, 162, 27, ATT, QccccCCCC, TimeUS,DesRoll,Roll,DesPitch,Pitch,DesYaw,Yaw,ErrRP,ErrYaw
FMT, 138, 33, BARO, QffcfIf, TimeUS,Alt,Press,Temp,CRt,SMS,Offset
FMT, 142, 45, CMD, QHHHfffffff, TimeUS,CTot,CNum,CId,Prm1,Prm2,Prm3,Prm4,Lat,Lng,Alt
FMT, 1, 23, CTUN, Qhcchf, TimeUS,Steer,Roll,Pitch,ThrOut,AccY
FMT, 163, 23, CURR, Qfff, TimeUS,Volt,Curr,CurrTot
FMT, 191, 24, GPA, QCCCCBI, TimeUS,VDop,HAcc,VAcc,SAcc,VV,SMS
FMT, 130, 46, GPS, QBIHBcLLefffB, TimeUS,Status,GMS,GWk,NSats,HDop,Lat,Lng,Alt,Spd,GCrs,VZ,U
FMT, 132, 49, IMU, QffffffIIfBB, TimeUS,GyrX,GyrY,GyrZ,AccX,AccY,AccZ,ErrG,ErrA,Temp,GyHlt,AcHlt
FMT, 137, 49, IMU2, QffffffIIfBB, TimeUS,GyrX,GyrY,GyrZ,AccX,AccY,AccZ,ErrG,ErrA,Temp,GyHlt,AcHlt
FMT, 165, 34, MAG, QhhhhhhhhhBI, TimeUS,MagX,MagY,MagZ,OfsX,OfsY,OfsZ,MOfsX,MOfsY,MOfsZ,Health,S
FMT, 166, 34, MAG2, QhhhhhhhhhBI, TimeUS,MagX,MagY,MagZ,OfsX,OfsY,OfsZ,MOfsX,MOfsY,MOfsZ,Health,S
FMT, 168, 14, MODE, QMBB, TimeUS,Mode,ModeNum,Rsn
FMT, 133, 75, MSG, QZ, TimeUS,Message
FMT, 195, 51, NKF1, QccCfffffffccc, TimeUS,Roll,Pitch,Yaw,VN,VE,VD,dPD,PN,PE,PD,GX,GY,GZ
FMT, 196, 35, NKF2, QbccccchhhhhhB, TimeUS,AZbias,GSX,GSY,GSZ,VWN,VWE,MN,ME,MD,MX,MY,MZ,MI
FMT, 197, 33, NKF3, Qcccccchhhcc, TimeUS,IVN,IVE,IVD,IPN,IPE,IPD,IMX,IMY,IMZ,IYAW,IVT
FMT, 198, 35, NKF4, QcccccfbbHBHHb, TimeUS,SV,SP,SH,SM,SVT,errRP,OFN,OFE,FS,TS,SS,GPS,PI
FMT, 199, 40, NKF5, QBhhhcccCCfff, TimeUS,NI,FIX,FIY,AFI,HAGL,offset,RI,rng,Herr,eAng,eVel,ePos
FMT, 200, 51, NKF6, QccCfffffffccc, TimeUS,Roll,Pitch,Yaw,VN,VE,VD,dPD,PN,PE,PD,GX,GY,GZ
FMT, 201, 35, NKF7, QbccccchhhhhhB, TimeUS,AZbias,GSX,GSY,GSZ,VWN,VWE,MN,ME,MD,MX,MY,MZ,MI
FMT, 202, 33, NKF8, Qcccccchhhcc, TimeUS,IVN,IVE,IVD,IPN,IPE,IPD,IMX,IMY,IMZ,IYAW,IVT
FMT, 203, 35, NKF9, QcccccfbbHBHHb, TimeUS,SV,SP,SH,SM,SVT,errRP,OFN,OFE,FS,TS,SS,GPS,PI
FMT, 2, 26, NTUN, QHfHHbf, TimeUS,Yaw,WpDist,TargBrg,NavBrg,Thr,XT
FMT, 129, 31, PARM, QNf, TimeUS,Name,Value
FMT, 183, 35, PIDA, Qffffff, TimeUS,Des,P,I,D,FF,AFF
FMT, 184, 35, PIDS, Qffffff, TimeUS,Des,P,I,D,FF,AFF
FMT, 3, 30, PM, QIHIhhhBH, TimeUS,LTime,MLC,gDt,GDx,GDy,GDz,I2CErr,INSErr
FMT, 139, 21, POWR, QffH, TimeUS,Vcc,VServo,Flags
FMT, 143, 20, RAD, QBBBBBHH, TimeUS,RSSI,RemRSSI,TxBuf,Noise,RemNoise,RxErrors,Fixed
FMT, 134, 39, RCIN, QHHHHHHHHHHHHHH, TimeUS,C1,C2,C3,C4,C5,C6,C7,C8,C9,C10,C11,C12,C13,C14
FMT, 135, 39, RCOU, QHHHHHHHHHHHHHH, TimeUS,C1,C2,C3,C4,C5,C6,C7,C8,C9,C10,C11,C12,C13,C14
FMT, 6, 14, STRT, QBH, TimeUS,SType,CTot
FMT, 185, 35, VIBE, QfffIII, TimeUS,VibeX,VibeY,VibeZ,Clip0,Clip1,Clip2
MSG, 4464000, Barometer calibration complete
MSG, 4469817, <startup_ground> Ground start
MSG, 4469836, Warming up ADC
MSG, 4970154, Beginning INS calibration. Do not move vehicle
MSG, 5001678, Initialising APM
MSG, 7784650, Ready to drive
MODE, 7784668, 0, 0, 0
ATT, 7784883, 0, 1.78, 0, 0.089999999999999997, 0, 55.880000000000003, 1, 0.80000000000000004
PIDS, 7784898, 0, 0, 0, 0, 0, 0
PIDA, 7784910, 0, 0, 0, 0, 0, 0
IMU, 7784922, 0.0078834742299999996, -0.00740693975, -0.00075419840899999997, 0.010147409499999999, -0.32959106599999999, -10.3808212, 0, 0, 21.693023700000001, 1, 1
IMU2, 7784922, -0.021896043800000001, 0.026212746299999999, 0.021079055999999999, 0.071843586900000006, -0.51223707200000002, -10.0256443, 0, 0, 0, 1, 1
MSG, 7806442, APM:Rover v3.1.2 (0fa522b8)
MSG, 7806459, PX4: 56c0c696 NuttX: be6ff61a
MSG, 7806505, PX4v2 0020002D 34355108 32363234
MSG, 7806522, New mission
CMD, 7806541, 11, 0, 16, 0, 0, 0, 0, 0, 0, 0
CMD, 7806563, 11, 1, 16, 0, 0, 0, 0, 37.660003699999997, -121.88705400000001, 1011
CMD, 7806584, 11, 2, 16, 0, 0, 0, 0, 37.659934999999997, -121.88696299999999, 112.699997
CMD, 7806605, 11, 3, 16, 0, 0, 0, 0, 37.659854899999999, -121.88690200000001, 108.89999400000001
CMD, 7806626, 11, 4, 16, 0, 0, 0, 0, 37.659770999999999, -121.886848, 107.299995
CMD, 7806647, 11, 5, 16, 0, 0, 0, 0, 37.6596756, -121.88690200000001, 101.400002
CMD, 7806668, 11, 6, 16, 0, 0, 0, 0, 37.659652700000002, -121.88696299999999, 1011
CMD, 7806690, 11, 7, 16, 0, 0, 0, 0, 37.659736600000002, -121.886955, 102.299995
CMD, 7806852, 11, 8, 16, 0, 0, 0, 0, 37.6597595, -121.88677199999999, 103.699997
CMD, 7806873, 11, 9, 16, 0, 0, 0, 0, 37.659812899999999, -121.88652, 108.89999400000001
CMD, 7806894, 11, 10, 16, 0, 0, 0, 0, 37.659751900000003, -121.886543, 2020
STRT, 7806907, 1, 11
MODE, 7806919, 0, 0, 0
ATT, 7807664, 0, 0.089999999999999997, 0, 2, 0, 55.880000000000003, 1, 0.64000000000000001
PIDS, 7807679, 0, 0, 0, 0, 0, 0
PIDA, 7807691, 0, 0, 0, 0, 0, 0
IMU, 7807703, 0.0063316547299999996, -0.0062211938200000001, -0.00055014831000000004, 0.0104276054, -0.32669800500000001, -10.369646100000001, 0, 0, 21.6990643, 1, 1
IMU2, 7807703, -0.0192535408, 0.021985737599999999, 0.017682546699999999, 0.118211515, -0.47662907799999998, -10.039646100000001, 0, 0, 0, 1, 1
ATT, 7827667, 0, 0.089999999999999997, 0, 2, 0, 55.880000000000003, 1, 0.64000000000000001
PIDS, 7827681, 0, 0, 0, 0, 0, 0
PIDA, 7827693, 0, 0, 0, 0, 0, 0
IMU, 7827705, 0.0045226579499999999, -0.0045350166000000004, -0.000325697329, 0.020845321900000002, -0.34071344100000001, -10.361869799999999, 0, 0, 21.704273199999999, 1, 1
IMU2, 7827705, -0.0143796923, 0.0155178299, 0.0128230341, 0.15109530099999999, -0.479622722, -10.0347977, 0, 0, 0, 1, 1
ATT, 7847669, 0, 0.089999999999999997, 0, 2, 0, 55.880000000000003, 1, 0.64000000000000001
PIDS, 7847692, 0, 0, 0, 0, 0, 0
PIDA, 7847705, 0, 0, 0, 0, 0, 0
IMU, 7847716, 0.0030352405700000001, -0.00276547344, -0.00027086172499999998, 0.033446658400000003, -0.343247354, -10.3608475, 0, 0, 21.7094612, 1, 1
IMU2, 7847716, -0.0094990348400000001, 0.00965974759, 0.0078187612799999993, 0.171934217, -0.56837761399999998, -10.030816099999999, 0, 0, 0, 1, 1
ATT, 7867714, 0, 0.089999999999999997, 0, 2, 0, 55.880000000000003, 1, 0.64000000000000001
PIDS, 7867729, 0, 0, 0, 0, 0, 0
PIDA, 7867742, 0, 0, 0, 0, 0, 0
IMU, 7867753, 0.0021336581599999999, -0.00125139672, -0.00042129089699999999, 0.048411577900000002, -0.34138259300000001, -10.3749275, 0, 0, 21.7145157, 1, 1
IMU2, 7867753, -0.0050514591899999996, 0.0054827318500000003, 0.0041725863700000001, 0.15792600800000001, -0.51700252300000005, -10.0266638, 0, 0, 0, 1, 1
BARO, 7868086, 0.056997317800000002, 50033.093800000002, 22.890000000000001, 0.176106229, 7868, 0
MAG, 7868124, 85, -65, 490, -15, -55, -7, 0, 0, 0, 1, 7868110
MAG2, 7868124, 129, -75, 406, -79, 52, 97, 0, 0, 0, 1, 7868118
CTUN, 7868153, 0, 0.089999999999999997, 2, 0, -0.34138259300000001
NTUN, 7868170, 5588, 0, 0, 0, 0, 0
RCIN, 7868188, 1487, 1500, 1497, 1500, 1556, 1500, 1501, 1500, 0, 0, 0, 0, 0, 0
RCOU, 7868260, 1487, 1501, 1503, 1501, 1555, 1501, 1500, 1501, 0, 0, 0, 0, 0, 0
VIBE, 7868607, 0.026789749000000002, 0.045708444000000001, 0.0446912348, 0, 0, 0
ATT, 7887871, 0, 0.10000000000000001, 0, 2, 0, 55.880000000000003, 1, 0.51000000000000001
PIDS, 7887886, 0, 0, 0, 0, 0, 0
PIDA, 7887898, 0, 0, 0, 0, 0, 0
IMU, 7887910, 0.0018176919500000001, -0.000246513926, -0.00060386420200000002, 0.033508397600000003, -0.32720458499999999, -10.373229, 0, 0, 21.719163900000002, 1, 1
IMU2, 7887910, -0.0018621663299999999, 0.0028127548299999999, 0.0021513861099999999, 0.114720091, -0.49617672000000002, -9.8965549500000005, 0, 0, 0, 1, 1
ATT, 7907686, 0, 0.10000000000000001, 0, 2, 0, 55.869999999999997, 1, 0.51000000000000001
PIDS, 7907700, 0, 0, 0, 0, 0, 0
PIDA, 7907713, 0, 0, 0, 0, 0, 0
IMU, 7907724, 0.0018067349400000001, 0.00034327432500000002, -0.00078418385199999999, 0.027643702900000001, -0.31085658100000002, -10.388133, 0, 0, 21.723758700000001, 1, 1
IMU2, 7907724, 0.00072111154399999997, 0.00036770827100000001, 0.00025066622799999999, 0.17049972699999999, -0.51756864800000002, -9.8677864100000008, 0, 0, 0, 1, 1
ATT, 7927827, 0, 0.10000000000000001, 0, 2, 0, 55.869999999999997, 1, 0.51000000000000001
PIDS, 7927842, 0, 0, 0, 0, 0, 0
PIDA, 7927854, 0, 0, 0, 0, 0, 0
IMU, 7927866, 0.00198947079, 0.00080732733500000001, -0.00086951430400000003, 0.0188519862, -0.30207350900000002, -10.383551600000001, 0, 0, 21.7283516, 1, 1
IMU2, 7927866, 0.00195973343, -0.0012647740099999999, -0.0010855607699999999, 0.15895891200000001, -0.47313916700000003, -9.9320545199999994, 0, 0, 0, 1, 1
ATT, 7947833, 0, 0.10000000000000001, 0, 2, 0, 55.859999999999999, 1, 0.51000000000000001
PIDS, 7947848, 0, 0, 0, 0, 0, 0
PIDA, 7947860, 0, 0, 0, 0, 0, 0
IMU, 7947872, 0.00203141803, 0.00092548772200000005, -0.00088504114000000002, 0.027227221100000001, -0.31965774299999999, -10.3678265, 0, 0, 21.732868199999999, 1, 1
IMU2, 7947872, 0.00318953441, -0.00202298211, -0.0023667698300000001, 0.124597967, -0.452541888, -9.9723501199999998, 0, 0, 0, 1, 1
ATT, 7967645, 0, 0.10000000000000001, 0, 2, 0, 55.850000000000001, 1, 0.51000000000000001
PIDS, 7967660, 0, 0, 0, 0, 0, 0
PIDA, 7967672, 0, 0, 0, 0, 0, 0
IMU, 7967684, 0.0018033856799999999, 0.00080219068300000002, -0.00086507113900000001, 0.045615091900000002, -0.32598111000000002, -10.369668000000001, 0, 0, 21.7374744, 1, 1
IMU2, 7967684, 0.0038204994099999999, -0.0022375623199999998, -0.0026288656500000002, 0.102242664, -0.48621678400000001, -9.9729356800000009, 0, 0, 0, 1, 1
BARO, 7967973, 0.130279586, 50032.679700000001, 22.920000000000002, -2.0850570199999998, 7967, 0
MAG, 7968010, 84, -65, 491, -15, -55, -7, 0, 0, 0, 1, 7967997
MAG2, 7968010, 127, -72, 399, -79, 52, 97, 0, 0, 0, 1, 7968004
CTUN, 7968047, 0, 0.10000000000000001, 2, 0, -0.32598111000000002
NTUN, 7968059, 5585, 0, 0, 0, 0, 0
RCIN, 7968078, 1487, 1500, 1497, 1500, 1556, 1500, 1501, 1500, 0, 0, 0, 0, 0, 0
RCOU, 7968150, 1487, 1501, 1503, 1501, 1555, 1501, 1500, 1501, 0, 0, 0, 0, 0, 0
VIBE, 7968170, 0.027206804599999999, 0.0438927338, 0.038938198200000003, 0, 0, 0
ATT, 7987939, 0, 0.10000000000000001, 0, 2, 0, 55.850000000000001, 0.80000000000000004, 0.40999999999999998
PIDS, 7987954, 0, 0, 0, 0, 0, 0
PIDA, 7987966, 0, 0, 0, 0, 0, 0
IMU, 7987977, 0.0012258359899999999, 0.000587818446, -0.000977648655, 0.0440836176, -0.32317611600000001, -10.3840618, 0, 0, 21.742088299999999, 1, 1
IMU2, 7987977, 0.0029659220000000002, -0.0020864978400000002, -0.0025397304000000002, 0.16983395800000001, -0.54943639, -10.0242319, 0, 0, 0, 1, 1
ATT, 8007588, 0, 0.10000000000000001, 0, 2, 0, 55.840000000000003, 0.80000000000000004, 0.40999999999999998
PIDS, 8007603, 0, 0, 0, 0, 0, 0
PIDA, 8007615, 0, 0, 0, 0, 0, 0
IMU, 8007627, 0.00049268401899999999, 0.00037748436399999999, -0.0011206257600000001, 0.047797311100000003, -0.31986570399999997, -10.369316100000001, 0, 0, 21.7466507, 1, 1
IMU2, 8007627, 0.0024438248900000002, -0.00157613494, -0.0020893239399999998, 0.22769530099999999, -0.52333182099999997, -9.9797668500000007, 0, 0, 0, 1, 1
ATT, 8027641, 0, 0.10000000000000001, 0, 2.0099999999999998, 0, 55.840000000000003, 0.80000000000000004, 0.40999999999999998
PIDS, 8027819, 0, 0, 0, 0, 0, 0
PIDA, 8027831, 0, 0, 0, 0, 0, 0
IMU, 8027843, 0.00016770121899999999, 0.000214258311, -0.00114867208, 0.041644148499999999, -0.32394376400000002, -10.359279600000001, 0, 0, 21.750455899999999, 1, 1
IMU2, 8027843, 0.00157834648, -0.00087888666899999998, -0.00107435195, 0.14702770100000001, -0.49587061999999998, -10.012070700000001, 0, 0, 0, 1, 1
ATT, 8047640, 0, 0.10000000000000001, 0, 2.0099999999999998, 0, 55.829999999999998, 0.80000000000000004, 0.40999999999999998
PIDS, 8047654, 0, 0, 0, 0, 0, 0
PIDA, 8047666, 0, 0, 0, 0, 0, 0
IMU, 8047847, 0.00011051359599999999, 4.9590143999999998e-05, -0.00095254066400000004, 0.031023800399999999, -0.32621496900000002, -10.356325099999999, 0, 0, 21.7544003, 1, 1
IMU2, 8047847, -0.000135479335, 7.4604890000000001e-05, -9.0377987399999999e-05, 0.122061737, -0.49511751500000001, -10.004595800000001, 0, 0, 0, 1, 1
ATT, 8067763, 0, 0.10000000000000001, 0, 2.02, 0, 55.829999999999998, 0.80000000000000004, 0.40999999999999998
PIDS, 8067778, 0, 0, 0, 0, 0, 0
PIDA, 8067790, 0, 0, 0, 0, 0, 0
IMU, 8067801, 0.00031140015899999999, -4.4323001900000003e-05, -0.00065226014699999995, 0.010960621800000001, -0.32631787699999998, -10.3758917, 0, 0, 21.758157700000002, 1, 1
IMU2, 8067801, -0.0023781296300000002, 0.00077727320600000003, 0.00060205825100000001, 0.12540030499999999, -0.48408055300000002, -10.030820800000001, 0, 0, 0, 1, 1
BARO, 8067874, 0.23884591499999999, 50032.042999999998, 22.93, -3.4221658700000002, 8067, 0
MAG, 8067912, 84, -66, 491, -15, -55, -7, 0, 0, 0, 1, 8067898
MAG2, 8067912, 125, -70, 393, -79, 52, 97, 0, 0, 0, 1, 8067906
CTUN, 8067941, 0, 0.10000000000000001, 2.02, 0, -0.32631787699999998
NTUN, 8068137, 5583, 0, 0, 0, 0, 0
RCIN, 8068156, 1487, 1500, 1497, 1500, 1556, 1500, 1501, 1500, 0, 0, 0, 0, 0, 0
RCOU, 8068227, 1487, 1501, 1503, 1501, 1555, 1501, 1500, 1501, 0, 0, 0, 0, 0, 0
VIBE, 8068250, 0.0265249517, 0.042052682500000001, 0.042728524699999999, 0, 0, 0
ATT, 8087890, 0, 0.10000000000000001, 0, 2.02, 0, 55.829999999999998, 0.80000000000000004, 0.32000000000000001
PIDS, 8087905, 0, 0, 0, 0, 0, 0
PIDA, 8087917, 0, 0, 0, 0, 0, 0
IMU, 8087928, 0.000634629745, -2.7894200699999999e-05, -0.00051269552200000005, 0.012767477899999999, -0.324316204, -10.388993299999999, 0, 0, 21.761943800000001, 1, 1
IMU2, 8087928, -0.0037387437199999998, 0.0011051218, 0.00088357971999999995, 0.126339704, -0.52359539300000002, -9.9904222499999999, 0, 0, 0, 1, 1
ATT, 8107843, 0, 0.10000000000000001, 0, 2.02, 0, 55.829999999999998, 0.80000000000000004, 0.32000000000000001
PIDS, 8107857, 0, 0, 0, 0, 0, 0
PIDA, 8107870, 0, 0, 0, 0, 0, 0
IMU, 8107881, 0.00064172444400000005, -8.0575315200000005e-05, -0.00048628772499999999, 0.039928190400000001, -0.33121439800000002, -10.3728619, 0, 0, 21.765594499999999, 1, 1
IMU2, 8107881, -0.0044714976099999998, 0.00118073984, 0.00094567867900000003, 0.11301974200000001, -0.523184121, -10.0123558, 0, 0, 0, 1, 1
ATT, 8127639, 0, 0.089999999999999997, 0, 2.02, 0, 55.829999999999998, 0.80000000000000004, 0.32000000000000001
PIDS, 8127827, 0, 0, 0, 0, 0, 0
PIDA, 8127839, 0, 0, 0, 0, 0, 0
IMU, 8127851, 0.00062749453399999996, -1.4196471099999999e-06, -0.00036453042399999999, 0.052603796100000003, -0.31746059700000001, -10.375973699999999, 0, 0, 21.7692032, 1, 1
IMU2, 8127851, -0.0046362672000000004, 0.00057446392, 0.00045066807099999998, 0.12584184100000001, -0.46026495099999998, -9.9541349399999994, 0, 0, 0, 1, 1
ATT, 8147768, 0, 0.10000000000000001, 0, 2.02, 0, 55.829999999999998, 0.80000000000000004, 0.32000000000000001
PIDS, 8147783, 0, 0, 0, 0, 0, 0
PIDA, 8147795, 0, 0, 0, 0, 0, 0
IMU, 8147807, 0.00105027668, 0.00015599919399999999, -0.00019868565099999999, 0.056164592499999999, -0.30262815999999998, -10.3854389, 0, 0, 21.772724199999999, 1, 1
IMU2, 8147807, -0.0031096129699999999, 0.000107494569, -0.00046650201, 0.127463773, -0.47596901699999999, -9.9464015999999997, 0, 0, 0, 1, 1
ATT, 8167638, 0, 0.10000000000000001, 0, 2.0299999999999998, 0, 55.840000000000003, 0.80000000000000004, 0.32000000000000001
PIDS, 8167652, 0, 0, 0, 0, 0, 0
PIDA, 8167664, 0, 0, 0, 0, 0, 0
IMU, 8167676, 0.00133053481, 0.00020652689299999999, -5.2922281599999997e-05, 0.042369149600000003, -0.31461358099999998, -10.3889608, 0, 0, 21.776281399999998, 1, 1
IMU2, 8167676, -0.00160564145, -0.000369060377, -0.00013067848300000001, 0.119608968, -0.50353545, -10.0290871, 0, 0, 0, 1, 1
BARO, 8167749, 0.0027141580400000002, 50033.406199999998, 22.93, -3.4409351300000002, 8167, 0
MAG, 8167999, 85, -66, 491, -15, -55, -7, 0, 0, 0, 1, 8167986
MAG2, 8167999, 124, -69, 390, -79, 52, 97, 0, 0, 0, 1, 8167993
CTUN, 8168036, 0, 0.10000000000000001, 2.0299999999999998, 0, -0.31461358099999998
NTUN, 8168048, 5584, 0, 0, 0, 0, 0
RCIN, 8168066, 1486, 1501, 1496, 1501, 1555, 1501, 1500, 1501, 0, 0, 0, 0, 0, 0
RCOU, 8168141, 1487, 1501, 1503, 1501, 1555, 1501, 1500, 1501, 0, 0, 0, 0, 0, 0
VIBE, 8168162, 0.030373560300000001, 0.047218594699999998, 0.048704925900000001, 0, 0, 0
ATT, 8187990, 0, 0.10000000000000001, 0, 2.0299999999999998, 0, 55.840000000000003, 0.64000000000000001, 0.26000000000000001
PIDS, 8188005, 0, 0, 0, 0, 0, 0
PIDA, 8188017, 0, 0, 0, 0, 0, 0
IMU, 8188036, 0.00098248256799999992, 0.000268893753, 0.00010379203, 0.029992530100000001, -0.33546024600000002, -10.3747902, 0, 0, 21.779756500000001, 1, 1
IMU2, 8188036, -0.00111324969, -0.00043750877400000002, -3.6533063400000003e-05, 0.157227278, -0.52817708299999999, -10.0105228, 0, 0, 0, 1, 1
ATT, 8207548, 0, 0.089999999999999997, 0, 2.04, 0, 55.840000000000003, 0.64000000000000001, 0.26000000000000001
PIDS, 8207563, 0, 0, 0, 0, 0, 0
PIDA, 8207575, 0, 0, 0, 0, 0, 0
IMU, 8207586, -0.000110012072, 0.00041193064000000001, 1.6228648700000002e-05, 0.030852049600000001, -0.34691366600000001, -10.3653336, 0, 0, 21.783201200000001, 1, 1
IMU2, 8207586, -0.0021652546700000001, 0.000525965646, -0.00044984751700000001, 0.15537694099999999, -0.50956052500000004, -9.9663028699999998, 0, 0, 0, 1, 1
ATT, 8227641, 0, 0.089999999999999997, 0, 2.0299999999999998, 0, 55.829999999999998, 0.64000000000000001, 0.26000000000000001
PIDS, 8227656, 0, 0, 0, 0, 0, 0
PIDA, 8227668, 0, 0, 0, 0, 0, 0
IMU, 8227680, -0.0012565536899999999, 0.00046813010699999998, -0.000190542516, 0.039056427800000001, -0.34523469200000001, -10.3662148, 0, 0, 21.786542900000001, 1, 1
IMU2, 8227680, -0.0028402409500000001, 0.00028854786099999998, -0.0015560614400000001, 0.093068338900000006, -0.465889424, -9.9202890400000001, 0, 0, 0, 1, 1
ATT, 8247638, 0, 0.089999999999999997, 0, 2.04, 0, 55.829999999999998, 0.64000000000000001, 0.26000000000000001
PIDS, 8247855, 0, 0, 0, 0, 0, 0
PIDA, 8247868, 0, 0, 0, 0, 0, 0
IMU, 8247880, -0.0016751269599999999, 0.00038789343699999998, -0.00059075315899999997, 0.0380997956, -0.33671391000000001, -10.368637100000001, 0, 0, 21.789732000000001, 1, 1
IMU2, 8247880, -0.0028122519099999998, -0.00018712317999999999, -0.00193093042, 0.093692555999999996, -0.44713774299999998, -9.9430675500000003, 0, 0, 0, 1, 1
ATT, 8267853, 0, 0.089999999999999997, 0, 2.04, 0, 55.829999999999998, 0.64000000000000001, 0.26000000000000001
PIDS, 8267868, 0, 0, 0, 0, 0, 0
PIDA, 8267880, 0, 0, 0, 0, 0, 0
IMU, 8267892, -0.0015370433699999999, 0.00027327067799999999, -0.00086235854500000002, 0.035914551500000003, -0.33106955900000001, -10.3799229, 0, 0, 21.7927322, 1, 1
IMU2, 8267892, -0.0023745114400000001, 0.00033391756000000002, -0.0021944814399999998, 0.15002731999999999, -0.47901627400000002, -10.016290700000001, 0, 0, 0, 1, 1
BARO, 8267965, 0.094995528499999995, 50032.875, 22.940000000000001, -2.0613391399999998, 8267, 0
MAG, 8268078, 84, -66, 492, -15, -55, -7, 0, 0, 0, 1, 8268064
MAG2, 8268078, 125, -70, 392, -79, 52, 97, 0, 0, 0, 1, 8268072
CTUN, 8268210, 0, 0.089999999999999997, 2.04, 0, -0.33106955900000001
NTUN, 8268222, 5583, 0, 0, 0, 0, 0
RCIN, 8268241, 1487, 1500, 1497, 1500, 1556, 1500, 1501, 1500, 0, 0, 0, 0, 0, 0
RCOU, 8268316, 1487, 1501, 1503, 1501, 1555, 1501, 1500, 1501, 0, 0, 0, 0, 0, 0
VIBE, 8268339, 0.026013776700000001, 0.039029132600000002, 0.0423667431, 0, 0, 0
ATT, 8287833, 0, 0.089999999999999997, 0, 2.04, 0, 55.829999999999998, 0.64000000000000001, 0.20999999999999999
PIDS, 8287848, 0, 0, 0, 0, 0, 0
PIDA, 8287860, 0, 0, 0, 0, 0, 0
IMU, 8287871, -0.00128681911, 0.00030374518199999999, -0.000745231693, 0.026492372199999999, -0.318189263, -10.383983600000001, 0, 0, 21.7960949, 1, 1
IMU2, 8287871, -0.0021105743899999998, 0.000230402453, -0.0022211428700000002, 0.129939049, -0.462895632, -10.159401900000001, 0, 0, 0, 1, 1
ATT, 8307817, 0, 0.080000000000000002, 0, 2.0499999999999998, 0, 55.829999999999998, 0.64000000000000001, 0.20999999999999999
PIDS, 8307832, 0, 0, 0, 0, 0, 0
PIDA, 8307844, 0, 0, 0, 0, 0, 0
IMU, 8307856, -0.0012147899299999999, 0.00051187694799999998, -0.00050255411799999996, 0.033546753200000001, -0.31428697700000002, -10.383217800000001, 0, 0, 21.799137099999999, 1, 1
IMU2, 8307856, -0.00359636289, 0.00035323548900000003, -0.00120899512, 0.133781135, -0.46381649400000002, -10.1319962, 0, 0, 0, 1, 1
ATT, 8327645, 0, 0.080000000000000002, 0, 2.0499999999999998, 0, 55.82, 0.64000000000000001, 0.20999999999999999
PIDS, 8327664, 0, 0, 0, 0, 0, 0
PIDA, 8327677, 0, 0, 0, 0, 0, 0
IMU, 8327688, -0.00150932639, 0.00054912891899999998, -0.00022858759599999999, 0.0369880088, -0.30584189299999998, -10.373369200000001, 0, 0, 21.801954299999998, 1, 1
IMU2, 8327688, -0.00506504625, -2.2871274299999999e-05, -0.00013568268299999999, 0.14538183800000001, -0.45766195700000001, -10.0551844, 0, 0, 0, 1, 1
ATT, 8347719, 0, 0.070000000000000007, 0, 2.0499999999999998, 0, 55.82, 0.64000000000000001, 0.20999999999999999
PIDS, 8347733, 0, 0, 0, 0, 0, 0
PIDA, 8347746, 0, 0, 0, 0, 0, 0
IMU, 8347757, -0.0015347664, 0.00052525429099999999, -0.00012586338599999999, 0.021385001000000001, -0.309088111, -10.3594933, 0, 0, 21.804532999999999, 1, 1
IMU2, 8347757, -0.0064886668699999997, 0.00025971120299999998, 0.00070902396699999996, 0.12669430700000001, -0.54340708299999996, -10.0164785, 0, 0, 0, 1, 1
ATT, 8367701, 0, 0.070000000000000007, 0, 2.0600000000000001, 0, 55.82, 0.64000000000000001, 0.20999999999999999
PIDS, 8367716, 0, 0, 0, 0, 0, 0
PIDA, 8367728, 0, 0, 0, 0, 0, 0
IMU, 8367740, -0.00123276631, 0.000496610592, -0.00042823195700000003, 0.0161617249, -0.30527880800000001, -10.3680258, 0, 0, 21.807100299999998, 1, 1
IMU2, 8367740, -0.0062838513400000004, 0.00048811588200000001, 0.0012102195800000001, 0.140180364, -0.55832839000000001, -9.9325265900000002, 0, 0, 0, 1, 1
BARO, 8367816, 0.40983787199999999, 50031.050799999997, 22.940000000000001, -0.751513243, 8367, 0
MAG, 8368127, 84, -66, 491, -15, -55, -7, 0, 0, 0, 1, 8367840
MAG2, 8368127, 125, -70, 392, -79, 52, 97, 0, 0, 0, 1, 8368122
CTUN, 8368157, 0, 0.070000000000000007, 2.0600000000000001, 0, -0.30527880800000001
NTUN, 8368169, 5582, 0, 0, 0, 0, 0
RCIN, 8368187, 1487, 1500, 1497, 1500, 1556, 1500, 1501, 1500, 0, 0, 0, 0, 0, 0
RCOU, 8368268, 1487, 1501, 1503, 1501, 1555, 1501, 1500, 1501, 0, 0, 0, 0, 0, 0
VIBE, 8368291, 0.0270184074, 0.038168158399999999, 0.0448421128, 0, 0, 0
ATT, 8387671, 0, 0.070000000000000007, 0, 2.0600000000000001, 0, 55.810000000000002, 0.64000000000000001, 0.16
PIDS, 8387885, 0, 0, 0, 0, 0, 0
PIDA, 8387898, 0, 0, 0, 0, 0, 0
IMU, 8387909, -0.00080659182300000002, 0.00052289117599999999, -0.00087118957900000004, 0.026728555599999999, -0.32044225900000001, -10.376545, 0, 0, 21.809801100000001, 1, 1
IMU2, 8387909, -0.0055545410099999996, 0.00082785054099999999, 0.00089745258400000002, 0.14374429, -0.50596600800000002, -10.0006027, 0, 0, 0, 1, 1
ATT, 8407715, 0, 0.070000000000000007, 0, 2.0600000000000001, 0, 55.810000000000002, 0.51000000000000001, 0.16
PIDS, 8407730, 0, 0, 0, 0, 0, 0
PIDA, 8407742, 0, 0, 0, 0, 0, 0
IMU, 8407753, -0.00072531431199999996, 0.00053734763099999995, -0.0011427717999999999, 0.036429628700000001, -0.33962184200000001, -10.375084899999999, 0, 0, 21.812694499999999, 1, 1
IMU2, 8407753, -0.0049513596999999996, 0.00072919856800000003, 0.00044113170599999999, 0.14188990000000001, -0.54644358199999998, -9.8978843699999999, 0, 0, 0, 1, 1
ATT, 8427803, 0, 0.070000000000000007, 0, 2.0600000000000001, 0, 55.82, 0.51000000000000001, 0.16
PIDS, 8427818, 0, 0, 0, 0, 0, 0
PIDA, 8427830, 0, 0, 0, 0, 0, 0
IMU, 8427841, -0.00062912993600000003, 0.00040308679999999998, -0.00129707321, 0.023724969499999998, -0.33970901399999998, -10.3746872, 0, 0, 21.8154392, 1, 1
IMU2, 8427841, -0.0043293549700000001, 3.1433675800000001e-05, -0.00036559597399999998, 0.15166190299999999, -0.59019100700000005, -9.9884700800000008, 0, 0, 0, 1, 1
ATT, 8447643, 0, 0.070000000000000007, 0, 2.0699999999999998, 0, 55.82, 0.51000000000000001, 0.16
PIDS, 8447657, 0, 0, 0, 0, 0, 0
PIDA, 8447670, 0, 0, 0, 0, 0, 0
IMU, 8447681, -0.000152125969, 0.00027567072500000003, -0.0013900583100000001, 0.023121317799999999, -0.33069598700000002, -10.382117300000001, 0, 0, 21.817983600000002, 1, 1
IMU2, 8447681, -0.0038179527000000001, -8.1605961900000002e-05, -0.00062926788800000001, 0.119482189, -0.57411563399999999, -9.9270763399999993, 0, 0, 0, 1, 1
ATT, 8467641, 0, 0.070000000000000007, 0, 2.0699999999999998, 0, 55.829999999999998, 0.51000000000000001, 0.16
PIDS, 8467856, 0, 0, 0, 0, 0, 0
PIDA, 8467869, 0, 0, 0, 0, 0, 0
IMU, 8467880, 0.00069258140900000005, 0.000313055614, -0.00136973511, 0.032530453100000002, -0.33464002599999998, -10.386532799999999, 0, 0, 21.8204517, 1, 1
IMU2, 8467880, -0.0030148197, 2.75356051e-05, -0.00063987763100000004, 0.18157585000000001, -0.49613741, -9.9835090599999994, 0, 0, 0, 1, 1
BARO, 8467953, 0.032569896399999999, 50033.234400000001, 22.940000000000001, 0.117035344, 8467, 0
MAG, 8467991, 85, -66, 491, -15, -55, -7, 0, 0, 0, 1, 8467977
MAG2, 8467991, 134, -80, 423, -79, 52, 97, 0, 0, 0, 1, 8467985
CTUN, 8468027, 0, 0.070000000000000007, 2.0699999999999998, 0, -0.33464002599999998
NTUN, 8468039, 5583, 0, 0, 0, 0, 0
RCIN, 8468058, 1487, 1500, 1497, 1500, 1556, 1500, 1501, 1500, 0, 0, 0, 0, 0, 0
RCOU, 8468130, 1487, 1501, 1503, 1501, 1555, 1501, 1500, 1501, 0, 0, 0, 0, 0, 0
VIBE, 8468152, 0.027715342099999998, 0.035107683399999999, 0.038542505400000003, 0, 0, 0
ATT, 8487781, 0, 0.070000000000000007, 0, 2.0699999999999998, 0, 55.840000000000003, 0.51000000000000001, 0.13
PIDS, 8487795, 0, 0, 0, 0, 0, 0
PIDA, 8487808, 0, 0, 0, 0, 0, 0
IMU, 8487819, 0.00125769258, 0.00039951384, -0.00109696458, 0.039669700000000002, -0.33326312899999999, -10.3708496, 0, 0, 21.8229504, 1, 1
IMU2, 8487819, -0.0019811820200000001, 0.000426774757, -0.00067173363600000005, 0.19718319200000001, -0.47709712399999998, -9.9902839700000001, 0, 0, 0, 1, 1
ATT, 8507808, 0, 0.070000000000000007, 0, 2.0800000000000001, 0, 55.82, 0.51000000000000001, 0.13
PIDS, 8507823, 0, 0, 0, 0, 0, 0
PIDA, 8507835, 0, 0, 0, 0, 0, 0
IMU, 8507847, 0.0014583297300000001, 0.000358984398, -0.00087629060700000001, 0.035041503600000003, -0.30725720499999998, -10.3634529, 0, 0, 21.825481400000001, 1, 1
IMU2, 8507847, -0.0013526439400000001, 0.00049721356499999995, -0.00044908875099999997, 0.13715290999999999, -0.50845897200000001, -9.9829578399999992, 0, 0, 0, 1, 1
ATT, 8527675, 0, 0.070000000000000007, 0, 2.0800000000000001, 0, 55.810000000000002, 0.51000000000000001, 0.13
PIDS, 8527690, 0, 0, 0, 0, 0, 0
PIDA, 8527702, 0, 0, 0, 0, 0, 0
IMU, 8527714, 0.00159516407, 0.00021795621400000001, -0.00071376620299999996, 0.0192229077, -0.278296828, -10.371506699999999, 0, 0, 21.828092600000002, 1, 1
IMU2, 8527714, -0.00123490032, 0.00087056262399999996, -0.00028063572199999999, 0.116642013, -0.46583649500000002, -9.9949779499999991, 0, 0, 0, 1, 1
ATT, 8547831, 0, 0.070000000000000007, 0, 2.0899999999999999, 0, 55.810000000000002, 0.51000000000000001, 0.13
PIDS, 8547846, 0, 0, 0, 0, 0, 0
PIDA, 8547858, 0, 0, 0, 0, 0, 0
IMU, 8547869, 0.0019435713800000001, 0.00017898557400000001, -0.00065278023199999999, 0.0181313567, -0.28029725, -10.373692500000001, 0, 0, 21.830490099999999, 1, 1
IMU2, 8547869, -0.00155061099, 0.00093553523799999995, 5.8236007999999998e-05, 0.12703278700000001, -0.44220385000000001, -9.9887599900000001, 0, 0, 0, 1, 1
ATT, 8567872, 0, 0.070000000000000007, 0, 2.0899999999999999, 0, 55.799999999999997, 0.51000000000000001, 0.13
PIDS, 8567887, 0, 0, 0, 0, 0, 0
PIDA, 8567899, 0, 0, 0, 0, 0, 0
IMU, 8567911, 0.0018504753200000001, 0.00033691414900000001, -0.00058491656100000003, 0.0282028969, -0.31309902699999997, -10.379156099999999, 0, 0, 21.832689299999998, 1, 1
IMU2, 8567911, -0.0016744922599999999, 0.00112220529, 0.00030462216799999998, 0.0904745832, -0.48070365199999998, -9.9806814199999998, 0, 0, 0, 1, 1
BARO, 8567984, 0.184562743, 50032.355499999998, 22.940000000000001, 0.39524927700000001, 8567, 0
MAG, 8568028, 85, -65, 491, -15, -55, -7, 0, 0, 0, 1, 8568007
MAG2, 8568028, 135, -81, 423, -79, 52, 97, 0, 0, 0, 1, 8568015
CTUN, 8568057, 0, 0.070000000000000007, 2.0899999999999999, 0, -0.31309902699999997
NTUN, 8568070, 5580, 0, 0, 0, 0, 0
RCIN, 8568088, 1487, 1500, 1497, 1500, 1556, 1500, 1501, 1500, 0, 0, 0, 0, 0, 0
RCOU, 8568309, 1487, 1501, 1503, 1501, 1555, 1501, 1500, 1501, 0, 0, 0, 0, 0, 0
VIBE, 8568331, 0.027521757399999999, 0.043818764400000002, 0.037810303300000001, 0, 0, 0
ATT, 8587717, 0, 0.059999999999999998, 0, 2.0899999999999999, 0, 55.789999999999999, 0.51000000000000001, 0.11
PIDS, 8587732, 0, 0, 0, 0, 0, 0
PIDA, 8587744, 0, 0, 0, 0, 0, 0
IMU, 8587756, 0.00101240783, 0.00059806881499999999, -0.00058441219199999997, 0.040600880999999998, -0.3292813, -10.3765059, 0, 0, 21.834808299999999, 1, 1
IMU2, 8587756, -0.0028932536999999999, 0.0011362537000000001, 0.00060678261799999996, 0.14728297300000001, -0.49438959399999999, -9.9663391099999998, 0, 0, 0, 1, 1
ATT, 8607547, 0, 0.059999999999999998, 0, 2.1000000000000001, 0, 55.770000000000003, 0.51000000000000001, 0.11
PIDS, 8607562, 0, 0, 0, 0, 0, 0
PIDA, 8607574, 0, 0, 0, 0, 0, 0
IMU, 8607585, 9.4764705899999996e-05, 0.00075977528500000002, -0.00069232593499999999, 0.043091520699999997, -0.31724211600000002, -10.3737555, 0, 0, 21.8371143, 1, 1
IMU2, 8607585, -0.0042065810399999999, 0.00099974672800000005, 0.00068883644400000003, 0.137492329, -0.48198860900000001, -10.0497131, 0, 0, 0, 1, 1
ATT, 8627739, 0, 0.059999999999999998, 0, 2.1000000000000001, 0, 55.75, 0.40999999999999998, 0.11
PIDS, 8627754, 0, 0, 0, 0, 0, 0
PIDA, 8627766, 0, 0, 0, 0, 0, 0
IMU, 8627778, -9.7078656800000002e-05, 0.00072167097799999999, -0.000786176999, 0.038486123099999998, -0.31974449799999999, -10.3794994, 0, 0, 21.839506100000001, 1, 1
IMU2, 8627778, -0.00483667944, 0.00062335049700000002, 0.00061583984599999995, 0.18319961400000001, -0.48188522499999997, -10.0821886, 0, 0, 0, 1, 1
ATT, 8647639, 0, 0.059999999999999998, 0, 2.1000000000000001, 0, 55.729999999999997, 0.40999999999999998, 0.11
PIDS, 8647654, 0, 0, 0, 0, 0, 0
PIDA, 8647666, 0, 0, 0, 0, 0, 0
IMU, 8647885, 0.00060023565299999995, 0.00056320853799999996, -0.00078564218700000004, 0.033682122799999999, -0.33988899, -10.386211400000001, 0, 0, 21.8421059, 1, 1
IMU2, 8647885, -0.0031231120199999999, -0.00029500346899999998, 0.00039730221000000001, 0.15659710800000001, -0.48344492900000002, -10.0331841, 0, 0, 0, 1, 1
ATT, 8667806, 0, 0.059999999999999998, 0, 2.1000000000000001, 0, 55.719999999999999, 0.40999999999999998, 0.11
PIDS, 8667821, 0, 0, 0, 0, 0, 0
PIDA, 8667833, 0, 0, 0, 0, 0, 0
IMU, 8667845, 0.0012428138900000001, 0.00030929251800000001, -0.00058747339099999999, 0.0229965411, -0.34321531700000002, -10.3956547, 0, 0, 21.844797100000001, 1, 1
IMU2, 8667845, -0.00201161695, -0.00050498393800000002, 0.00090769468799999998, 0.090049810699999996, -0.48966693900000002, -10.068409000000001, 0, 0, 0, 1, 1
BARO, 8667918, 0.13842205699999999, 50032.621099999997, 22.949999999999999, 0.098388232300000003, 8667, 0
MAG, 8667955, 84, -67, 491, -15, -55, -7, 0, 0, 0, 1, 8667942
MAG2, 8667955, 127, -73, 399, -79, 52, 97, 0, 0, 0, 1, 8667950
CTUN, 8667984, 0, 0.059999999999999998, 2.1000000000000001, 0, -0.34321531700000002
NTUN, 8667997, 5572, 0, 0, 0, 0, 0
RCIN, 8668015, 1486, 1501, 1496, 1501, 1555, 1501, 1500, 1501, 0, 0, 0, 0, 0, 0
RCOU, 8668266, 1486, 1501, 1503, 1501, 1555, 1501, 1500, 1501, 0, 0, 0, 0, 0, 0
VIBE, 8668288, 0.027279695499999999, 0.0397226475, 0.048312760900000001, 0, 0, 0
ATT, 8687674, 0, 0.059999999999999998, 0, 2.1099999999999999, 0, 55.700000000000003, 0.40999999999999998, 0.089999999999999997
PIDS, 8687856, 0, 0, 0, 0, 0, 0
PIDA, 8687868, 0, 0, 0, 0, 0, 0
IMU, 8687880, 0.0012615961000000001, 0.000176951464, -0.00033778685600000002, 0.011674523399999999, -0.33655887800000001, -10.3891869, 0, 0, 21.847663900000001, 1, 1
IMU2, 8687880, -0.0023305288099999999, -0.00041571806699999998, 0.00099798908899999999, 0.071922048899999994, -0.51206242999999996, -10.0085382, 0, 0, 0, 1, 1
ATT, 8707749, 0, 0.059999999999999998, 0, 2.1099999999999999, 0, 55.700000000000003, 0.40999999999999998, 0.089999999999999997
PIDS, 8707764, 0, 0, 0, 0, 0, 0
PIDA, 8707776, 0, 0, 0, 0, 0, 0
IMU, 8707788, 0.00072814430999999997, 0.00022864539599999999, -0.00019667592999999999, 0.0136276139, -0.31482517700000001, -10.3819923, 0, 0, 21.850256000000002, 1, 1
IMU2, 8707788, -0.00294669578, -0.00059069320600000003, 0.00078538275599999996, 0.079670563299999997, -0.45556458799999999, -9.9758319899999996, 0, 0, 0, 1, 1
ATT, 8727821, 0, 0.059999999999999998, 0, 2.1099999999999999, 0, 55.710000000000001, 0.40999999999999998, 0.089999999999999997
PIDS, 8727836, 0, 0, 0, 0, 0, 0
PIDA, 8727848, 0, 0, 0, 0, 0, 0
IMU, 8727859, 0.00054268579699999996, 0.00042431277700000003, -0.00024744641299999999, 0.016454821500000001, -0.30009391899999999, -10.382183100000001, 0, 0, 21.852813699999999, 1, 1
IMU2, 8727859, -0.0033648214300000001, -0.000249766395, 0.000467845093, 0.119635701, -0.41853204399999999, -10.0262127, 0, 0, 0, 1, 1
ATT, 8747665, 0, 0.059999999999999998, 0, 2.1099999999999999, 0, 55.710000000000001, 0.40999999999999998, 0.089999999999999997
PIDS, 8747680, 0, 0, 0, 0, 0, 0
PIDA, 8747692, 0, 0, 0, 0, 0, 0
IMU, 8747704, 0.0012826698400000001, 0.00060358486400000002, -0.00045542526599999999, 0.0290587842, -0.30516990999999999, -10.382574999999999, 0, 0, 21.855459199999999, 1, 1
IMU2, 8747704, -0.00207342301, 0.00031194539000000001, -0.000189834245, 0.16823685199999999, -0.49656647399999998, -10.030155199999999, 0, 0, 0, 1, 1
ATT, 8767871, 0, 0.070000000000000007, 0, 2.1099999999999999, 0, 55.710000000000001, 0.40999999999999998, 0.089999999999999997
PIDS, 8767886, 0, 0, 0, 0, 0, 0
PIDA, 8767898, 0, 0, 0, 0, 0, 0
IMU, 8767909, 0.00257159909, 0.00047940714300000002, -0.00071921554600000003, 0.023605370899999999, -0.31423956199999997, -10.3895111, 0, 0, 21.858369799999998, 1, 1
IMU2, 8767909, -0.00032362784299999999, 0.00021749797499999999, -0.0003967706, 0.105049923, -0.54545688599999997, -9.9998836499999992, 0, 0, 0, 1, 1
BARO, 8767982, -0.17913442900000001, 50034.464800000002, 22.949999999999999, -0.354536921, 8767, 0
MAG, 8768027, 84, -65, 490, -15, -55, -7, 0, 0, 0, 1, 8768006
MAG2, 8768027, 127, -73, 402, -79, 52, 97, 0, 0, 0, 1, 8768014
CTUN, 8768056, 0, 0.070000000000000007, 2.1099999999999999, 0, -0.31423956199999997
NTUN, 8768068, 5571, 0, 0, 0, 0, 0
RCIN, 8768086, 1487, 1500, 1497, 1500, 1556, 1501, 1500, 1501, 0, 0, 0, 0, 0, 0
RCOU, 8768158, 1487, 1501, 1503, 1501, 1555, 1501, 1500, 1501, 0, 0, 0, 0, 0, 0
VIBE, 8768181, 0.107183337, 0.053660139400000001, 0.046196553899999999, 0, 0, 0
CURR, 8768423, 7.0185909300000002, 0, 0
POWR, 8768435, 4.8323731399999996, 4.80900002, 0
ATT, 8792199, 0, 0.059999999999999998, 0, 2.1099999999999999, 0, 55.719999999999999, 0.40999999999999998, 0.070000000000000007
NKF1, 8792211, 0.080000000000000002, 1.8500000000000001, 0, 6.9208770599999995e-05, 0.0016541275, -0.0058506773799999997, 0, 0, 0, -5.8506768300000001e-05, 0, 0, 0
NKF2, 8792211, 0, 0, 0, 0, 0, 0, 0, 0, 0, 0, 0, 0, 0
NKF3, 8792211, 0, 0, 0, 0, 0, 0, 0, 0, 0, 0, 0
NKF4, 8792211, 0, 0, 0, 0, 0, 0.980000019, 0, 0, 0, 19, 0, 0, 0
NKF5, 8792211, 0, 0, 0, 0, 0, 0, 0, 0, 0.5, 0.00032492322499999999, 0.19613301799999999, 0.0019613304199999999
NKF6, 8792211, 1.1899999999999999, 2.7200000000000002, 0, 0.000228581528, -0.0023510097499999999, 0.0024740686599999998, 0, 0, 0, 3.2472155000000001e-05, 0, 0, 0
NKF7, 8792211, 0, 0, 0, 0, 0, 0, 0, 0, 0, 0, 0, 0, 0
NKF8, 8792211, 0, 0, 0, 0, 0, 0, 0, 0, 0, 0, 0
NKF9, 8792211, 0, 0, 0, 0, 0, 0.97894734100000003, 0, 0, 0, 19, 0, 0, 0
AHR2, 8792509, 0.080000000000000002, 1.8500000000000001, 0, 0, 0, 53.687823199999997
PIDS, 8792526, 0, 0, 0, 0, 0, 0
PIDA, 8792538, 0, 0, 0, 0, 0, 0
IMU, 8792549, 0.00336147891, 0.0015669258999999999, -0.0010257515799999999, -0.011346844, -0.32656556399999997, -10.397579199999999, 0, 0, 21.8613663, 1, 1
IMU2, 8792549, 0.0012663904300000001, 0.0019165237899999999, -0.00123217166, 0.140044853, -0.50808763499999998, -10.0361042, 0, 0, 0, 1, 1
ATT, 8808885, 0, 0.059999999999999998, 0, 2.1299999999999999, 0, 55.719999999999999, 0.40999999999999998, 0.070000000000000007
NKF1, 8808896, 0.080000000000000002, 1.8600000000000001, 0.01, 0.0065457313300000004, 0.00029018934600000002, -0.00772195216, 0, 0, 0, -2.7395653899999998e-05, 0, 0, 0
NKF2, 8808896, 0, 0, 0, 0, 0, 0, 0, 0, 0, 0, 0, 0, 0
NKF3, 8808896, 0, 0, 0, 0, 0, 0, 0, 0, 0, 0, 0
NKF4, 8808896, 0, 0, 0, 0, 0, 0.96040004499999998, 0, 0, 0, 19, 0, 0, 0
NKF5, 8808896, 0, 0, 0, 0, 0.089999999999999997, 0.10000000000000001, 0, 0, 0.5, 0.00065124227000000002, 0.173910394, 0.0056617096999999998
NKF6, 8808896, 1.1799999999999999, 2.7400000000000002, 0, 0.0058700786899999998, -0.00286299526, 0.0119417654, 0, 0, 0, 0.00050843250899999999, 0, 0, 0
NKF7, 8808896, 0, 0, 0, 0, 0, 0, 0, 0, 0, 0, 0, 0, 0
NKF8, 8808896, 0, 0, 0, 0, 0, 0, 0, 0, 0, 0, 0
NKF9, 8808896, 0, 0, 0, 0, 0, 0.95833790299999999, 0, 0, 0, 19, 0, 0, 0
AHR2, 8809209, 0.080000000000000002, 1.8600000000000001, 0.01, 0, 0, 53.687823199999997
PIDS, 8809226, 0, 0, 0, 0, 0, 0
PIDA, 8809238, 0, 0, 0, 0, 0, 0
IMU, 8809249, 0.0016364189799999999, 0.0018213748699999999, -8.7366454000000005e-05, 0.12203352200000001, -0.256643116, -10.338860499999999, 0, 0, 21.8641644, 1, 1
IMU2, 8809249, 0.0011214422999999999, 0.0038695493700000002, -0.00060339824999999998, 0.28665801899999999, -0.45488780699999998, -9.9038677199999992, 0, 0, 0, 1, 1
ATT, 8828603, 0, 0.070000000000000007, 0, 2.1299999999999999, 0, 55.700000000000003, 0.40999999999999998, 0.070000000000000007
NKF1, 8828614, 0.070000000000000007, 1.8500000000000001, 0.01, 0.0074412967099999998, 0.0019993502599999998, -0.0117607526, 0, 0, 0, 9.8759453999999996e-05, 0, 0, 0
NKF2, 8828614, 0, 0, 0, 0, 0, 0, 0, 0, 0, 0, 0, 0, 0
NKF3, 8828614, 0, 0, 0, 0, 0, 0, 0, 0, 0, 0, 0
NKF4, 8828614, 0, 0, 0, 0, 0, 0.94119209100000001, 0, 0, 0, 19, 0, 0, 0
NKF5, 8828614, 0, 0, 0, 0, 0.089999999999999997, 0.10000000000000001, 0, 0, 0.5, 0.00097755598799999992, 0.15246295900000001, 0.0089222071699999999
NKF6, 8828614, 1.1799999999999999, 2.75, 0, 0.0072468775300000001, 0.00054807140300000003, 0.016900910099999999, 0, 0, 0, 0.0014494254699999999, 0, 0, 0
NKF7, 8828614, 0, 0, 0, 0, 0, 0, 0, 0, 0, 0, 0, 0, 0
NKF8, 8828614, 0, 0, 0, 0, 0, 0, 0, 0, 0, 0, 0
NKF9, 8828614, 0, 0, 0, 0, 0, 0.93816232700000002, 0, 0, 0, 19, 0, 0, 0
AHR2, 8828779, 0.070000000000000007, 1.8500000000000001, 0.01, 0, 0, 53.687823199999997
PIDS, 8828796, 0, 0, 0, 0, 0, 0
PIDA, 8828808, 0, 0, 0, 0, 0, 0
IMU, 8829177, 0.00062351184899999996, 0.00057834840800000001, 0.00032176607100000001, 0.147656754, -0.30597761299999998, -10.346313500000001, 0, 0, 21.866962399999998, 1, 1
IMU2, 8829177, 0.00063997087999999997, 0.0040973611200000003, -0.00027253222699999999, 0.250117123, -0.45847123899999997, -9.9915914499999996, 0, 0, 0, 1, 1
ATT, 8848734, 0, 0.080000000000000002, 0, 2.1299999999999999, 0, 55.689999999999998, 0.32000000000000001, 0.070000000000000007
NKF1, 8848745, 0.059999999999999998, 1.8400000000000001, 0, 0.0043272823099999996, 0.00060798268500000005, -0.018950067500000001, 0, 0, 0, 0.00025345629500000001, 0, 0, 0
NKF2, 8848745, 0, 0, 0, 0, 0, 0, 0, 0, 0, 0, 0, 0, 0
NKF3, 8848745, 0, 0, 0, 0, 0, 0, 0, 0, 0, 0, 0
NKF4, 8848745, 0, 0, 0, 0, 0, 0.92236828800000004, 0, 0, 0, 19, 0, 0, 0
NKF5, 8848745, 0, 0, 0, 0, 0.089999999999999997, 0.11, 0, 0, 0.5, 0.00130386965, 0.13179975699999999, 0.011755784999999999
NKF6, 8848745, 1.1699999999999999, 2.75, 0.01, 0.0041695903100000004, 2.0646461100000001e-05, 0.017593765599999998, 0, 0, 0, 0.0027336417700000002, 0, 0, 0
NKF7, 8848745, 0, 0, 0, 0, 0, 0, 0, 0, 0, 0, 0, 0, 0
NKF8, 8848745, 0, 0, 0, 0, 0, 0, 0, 0, 0, 0, 0
NKF9, 8848745, 0, 0, 0, 0, 0, 0.91841149300000002, 0, 0, 0, 19, 0, 0, 0
AHR2, 8849194, 0.059999999999999998, 1.8400000000000001, 0, 0, 0, 53.687823199999997
PIDS, 8849211, 0, 0, 0, 0, 0, 0
PIDA, 8849223, 0, 0, 0, 0, 0, 0
IMU, 8849235, 0.00142185134, -0.00078395905399999998, 7.4351737600000001e-06, -0.011484270899999999, -0.352748334, -10.4300137, 0, 0, 21.869922599999999, 1, 1
IMU2, 8849235, 0.00174123386, 0.0032772673299999999, 0.00041551116700000001, 0.078543320299999997, -0.50217699999999998, -10.129489899999999, 0, 0, 0, 1, 1
ATT, 8868660, 0, 0.089999999999999997, 0, 2.1299999999999999, 0, 55.670000000000002, 0.32000000000000001, 0.070000000000000007
NKF1, 8868672, 0.070000000000000007, 1.8500000000000001, 0, 0.0033157935799999999, -0.00128836767, -0.024906132399999999, 0, 0, 0, 0.00040367152499999999, 0, 0, 0
NKF2, 8868672, 0, 0, 0, 0, 0, 0, 0, 0, 0, 0, 0, 0, 0
NKF3, 8868672, 0, 0, 0, 0, 0, 0, 0, 0, 0, 0, 0
NKF4, 8868672, 0, 0, 0, 0, 0, 0.90392094899999997, 0, 0, 0, 19, 0, 0, 0
NKF5, 8868672, 0, 0, 0, 0, 0.089999999999999997, 0.11, 0, 0, 0.5, 0.0016301869200000001, 0.111929476, 0.014176021299999999
NKF6, 8868672, 1.1799999999999999, 2.7599999999999998, 0, 0.0010396455199999999, -0.00238370313, 0.019381374100000001, 0, 0, 0, 0.0043102782199999998, 0, 0, 0
NKF7, 8868672, 0, 0, 0, 0, 0, 0, 0, 0, 0, 0, 0, 0, 0
NKF8, 8868672, 0, 0, 0, 0, 0, 0, 0, 0, 0, 0, 0
NKF9, 8868672, 0, 0, 0, 0, 0, 0.89907646200000002, 0, 0, 0, 19, 0, 0, 0
AHR2, 8869087, 0.070000000000000007, 1.8500000000000001, 0, 0, 0, 53.687823199999997
PIDS, 8869137, 0, 0, 0, 0, 0, 0
PIDA, 8869154, 0, 0, 0, 0, 0, 0
IMU, 8869166, 0.0041419426000000002, -0.000149372412, -0.0010549863799999999, -0.113315575, -0.351214796, -10.4287682, 0, 0, 21.872880899999998, 1, 1
IMU2, 8869166, 0.0038773005400000002, 0.0028467599799999999, 0.00026403192899999999, 0.0117440876, -0.52726048199999997, -10.147916800000001, 0, 0, 0, 1, 1
BARO, 8869241, 0.23341758500000001, 50032.082000000002, 22.949999999999999, -0.52770823200000005, 8869, 0
MAG, 8869279, 86, -66, 491, -15, -55, -7, 0, 0, 0, 1, 8869265
MAG2, 8869279, 134, -80, 421, -79, 52, 97, 0, 0, 0, 1, 8869273
CTUN, 8869308, 0, 0.089999999999999997, 2.1299999999999999, 0, -0.351214796
NTUN, 8869324, 5567, 0, 0, 0, 0, 0
RCIN, 8869343, 1486, 1501, 1496, 1501, 1555, 1501, 1500, 1501, 0, 0, 0, 0, 0, 0
RCOU, 8869559, 1486, 1501, 1503, 1501, 1555, 1501, 1500, 1501, 0, 0, 0, 0, 0, 0
VIBE, 8869581, 0.208402649, 0.44699469200000003, 0.39800640900000001, 0, 0, 0
MSG, 8888437, EKF2 IMU0 initial yaw alignment complete
MSG, 8889852, EKF2 IMU1 initial yaw alignment complete
ATT, 8890632, 0, 0.10000000000000001, 0, 2.1400000000000001, 0, 55.659999999999997, 0.32000000000000001, 0.059999999999999998
NKF1, 8890643, 0.050000000000000003, 1.78, 55.899999999999999, 0.0038991635700000001, 0.0019655360400000002, -0.031407747399999998, 0, 0, 0, 0.0042059253900000003, 0, 0, 0
NKF2, 8890643, 0, 0, 0, 0, 0, 0, 113, 24, 488, 0, 0, 0, 0
NKF3, 8890643, 0, 0, 0, 0, 0, -0.16, 0, 0, 0, 0, 0
NKF4, 8890643, 0, 0, 0, 0, 0, 0.885842562, 0, 0, 0, 19, 0, 0, 0
NKF5, 8890643, 0, 0, 0, 0, 0.01, 0.11, 0, 0, 0.5, 0.0019565201400000001, 0.093387194000000007, 0.096759356599999999
NKF6, 8890643, 1.1599999999999999, 2.73, 56.579999999999998, 0.00164771709, -0.00159474008, 0.0237029996, 0, 0, 0, 0.0095990095300000008, 0, 0, 0
NKF7, 8890643, 0, 0, 0, 0, 0, 0, 125, 27, 484, 0, 0, 0, 0
NKF8, 8890643, 0, 0, 0, 0, 0, -0.14000000000000001, 0, 0, 0, 0, 0
NKF9, 8890643, 0, 0, 0, 0, 0, 0.88014853000000004, 0, 0, 0, 19, 0, 0, 0
AHR2, 8890940, 0.050000000000000003, 1.78, 55.899999999999999, 0, 0, 53.687823199999997
PIDS, 8890957, 0, 0, 0, 0, 0, 0
PIDA, 8890969, 0, 0, 0, 0, 0, 0
IMU, 8890980, 0.00596000673, 0.0011978406700000001, -0.0020518572999999999, -0.013298528299999999, -0.303336471, -10.376668, 0, 0, 21.875755300000002, 1, 1
IMU2, 8890980, 0.0050354367099999997, 0.0024226435900000002, -0.00066911306899999998, 0.13537448599999999, -0.478056431, -9.9968614599999999, 0, 0, 0, 1, 1
ATT, 8908699, 0, 0.10000000000000001, 0, 2.1299999999999999, 0, 55.649999999999999, 0.32000000000000001, 0.059999999999999998
NKF1, 8908711, 0.040000000000000001, 1.79, 55.909999999999997, 0.0050583579599999999, 0.0044578239300000003, -0.038793116799999999, 0, 0, 0, 0.0078721363099999997, 0, 0, 0
NKF2, 8908711, 0, 0, 0, 0, 0, 0, 113, 24, 488, 0, 0, 0, 0
NKF3, 8908711, 0, 0, 0, 0, 0, -0.16, 0, 0, 0, 0, 0
NKF4, 8908711, 0, 0, 0, 0, 0, 0.86812573699999995, 0, 0, 0, 19, 0, 0, 0
NKF5, 8908711, 0, 0, 0, 0, 0.10000000000000001, 0.20000000000000001, 0, 0, 0.5, 0.00216414873, 0.075116150100000001, 0.094738885800000006
NKF6, 8908711, 1.1599999999999999, 2.73, 56.579999999999998, 0.00084655138199999996, 0.0011769697300000001, 0.027998428799999999, 0, 0, 0, 0.0150784552, 0, 0, 0
NKF7, 8908711, 0, 0, 0, 0, 0, 0, 125, 27, 484, 0, 0, 0, 0
NKF8, 8908711, 0, 0, 0, 0, 0, -0.14000000000000001, 0, 0, 0, 0, 0
NKF9, 8908711, 0, 0, 0, 0, 0, 0.86161905500000002, 0, 0, 0, 19, 0, 0, 0
AHR2, 8908878, 0.040000000000000001, 1.79, 55.909999999999997, 0, 0, 53.687823199999997
PIDS, 8909105, 0, 0, 0, 0, 0, 0
PIDA, 8909117, 0, 0, 0, 0, 0, 0
IMU, 8909128, 0.0065693655100000003, 0.0017023477700000001, -0.0017064864500000001, 0.076178446400000002, -0.31725200999999997, -10.3580503, 0, 0, 21.878810900000001, 1, 1
IMU2, 8909128, 0.0052986745700000001, 0.0013456629800000001, -0.00064894865499999998, 0.20127320300000001, -0.45428559200000002, -9.9436206800000004, 0, 0, 0, 1, 1
ATT, 8928771, 0, 0.089999999999999997, 0, 2.1400000000000001, 0, 55.640000000000001, 0.32000000000000001, 0.059999999999999998
NKF1, 8928782, 0.029999999999999999, 1.8, 55.920000000000002, 0.0062092975700000002, 0.0050805988700000004, -0.048032812799999998, 0, 0, 0, 0.011321311800000001, 0, 0, 0
NKF2, 8928782, 0, 0, 0, 0, 0, 0, 113, 24, 488, 0, 0, 0, 0
NKF3, 8928782, 0, 0, 0, 0, 0, -0.16, 0, 0, 0, 0, 0
NKF4, 8928782, 0, 0, 0, 0, 0, 0.85076326099999999, 0, 0, 0, 19, 0, 0, 0
NKF5, 8928782, 0, 0, 0, 0, 0.089999999999999997, 0.20000000000000001, 0, 0, 0.5, 0.0023984541199999999, 0.057635340799999997, 0.092442706200000002
NKF6, 8928782, 1.1499999999999999, 2.75, 56.590000000000003, 0.00123040704, -0.0023429798900000002, 0.028099129, 0, 0, 0, 0.0207706951, 0, 0, 0
NKF7, 8928782, 0, 0, 0, 0, 0, 0, 125, 27, 484, 0, 0, 0, 0
NKF8, 8928782, 0, 0, 0, 0, 0, -0.14000000000000001, 0, 0, 0, 0, 0
NKF9, 8928782, 0, 0, 0, 0, 0, 0.84347969300000003, 0, 0, 0, 19, 0, 0, 0
AHR2, 8928945, 0.029999999999999999, 1.8, 55.920000000000002, 0, 0, 53.687823199999997
PIDS, 8928962, 0, 0, 0, 0, 0, 0
PIDA, 8928974, 0, 0, 0, 0, 0, 0
IMU, 8928985, 0.0059335408700000002, 0.00151250628, 2.9375332799999998e-06, 0.071242771999999996, -0.344261765, -10.372901000000001, 0, 0, 21.882121999999999, 1, 1
IMU2, 8928985, 0.0041161254000000001, 0.00049398047800000002, 0.000232876278, 0.123442687, -0.52397882900000003, -9.9961843500000001, 0, 0, 0, 1, 1
ATT, 8948737, 0, 0.089999999999999997, 0, 2.1400000000000001, 0, 55.630000000000003, 0.32000000000000001, 0.059999999999999998
NKF1, 8948749, 0.029999999999999999, 1.8, 55.920000000000002, 0.0081987371699999995, 0.0056039323100000003, -0.056977495599999997, 0, 0, 0, 0.0146493027, 0, 0, 0
NKF2, 8948749, 0, 0, 0, 0, 0, 0, 113, 24, 488, 0, 0, 0, 0
NKF3, 8948749, 0, 0, 0, 0, 0, -0.16, 0, 0, 0, 0, 0
NKF4, 8948749, 0, 0, 0, 0, 0, 0.83374798299999997, 0, 0, 0, 19, 0, 0, 0
NKF5, 8948749, 0, 0, 0, 0, 0.089999999999999997, 0.20000000000000001, 0, 0, 0.5, 0.0026520898100000001, 0.041068404900000001, 0.089879535100000005
NKF6, 8948749, 1.1399999999999999, 2.7599999999999998, 56.590000000000003, 0.0017225460599999999, -0.0035980327500000002, 0.0296449773, 0, 0, 0, 0.026674058300000001, 0, 0, 0
NKF7, 8948749, 0, 0, 0, 0, 0, 0, 125, 27, 484, 0, 0, 0, 0
NKF8, 8948749, 0, 0, 0, 0, 0, -0.14000000000000001, 0, 0, 0, 0, 0
NKF9, 8948749, 0, 0, 0, 0, 0, 0.82572221800000001, 0, 0, 0, 19, 0, 0, 0
AHR2, 8948954, 0.029999999999999999, 1.8, 55.920000000000002, 0, 0, 53.687823199999997
PIDS, 8948971, 0, 0, 0, 0, 0, 0
PIDA, 8948983, 0, 0, 0, 0, 0, 0
IMU, 8948995, 0.0051088570600000003, 0.0013200953800000001, 0.0012673023199999999, 0.038501333399999997, -0.35715094200000003, -10.3924217, 0, 0, 21.885231000000001, 1, 1
IMU2, 8948995, 0.0019605280800000001, 0.0013992124000000001, 0.00114930316, 0.11157265299999999, -0.51923990200000003, -10.0283108, 0, 0, 0, 1, 1
ATT, 8968715, 0, 0.10000000000000001, 0, 2.1400000000000001, 0, 55.609999999999999, 0.32000000000000001, 0.059999999999999998
NKF1, 8968727, 0.02, 1.8100000000000001, 55.920000000000002, 0.0094066318099999997, 0.0075974813699999999, -0.0670334026, 0, 0, 0, 0.017688173799999998, 0, 0, 0
NKF2, 8968727, 0, 0, 0, 0, 0, 0, 113, 24, 488, 0, 0, 0, 0
NKF3, 8968727, 0, 0, 0, 0, 0, -0.16, 0, 0, 0, 0, 0
NKF4, 8968727, 0, 0, 0, 0, 0, 0.81707304700000005, 0, 0, 0, 19, 0, 0, 0
NKF5, 8968727, 0, 0, 0, 0, 0.089999999999999997, 0.20000000000000001, 0, 0, 0.5, 0.0029199987200000002, 0.025693785399999999, 0.087081290800000002
NKF6, 8968727, 1.1399999999999999, 2.77, 56.590000000000003, 0.0039768759200000002, -0.0043333671099999999, 0.032354030800000003, 0, 0, 0, 0.032662786499999999, 0, 0, 0
NKF7, 8968727, 0, 0, 0, 0, 0, 0, 125, 27, 484, 0, 0, 0, 0
NKF8, 8968727, 0, 0, 0, 0, 0, -0.14000000000000001, 0, 0, 0, 0, 0
NKF9, 8968727, 0, 0, 0, 0, 0, 0.80833858300000005, 0, 0, 0, 19, 0, 0, 0
AHR2, 8968890, 0.02, 1.8100000000000001, 55.920000000000002, 0, 0, 53.687823199999997
PIDS, 8968906, 0, 0, 0, 0, 0, 0
PIDA, 8968918, 0, 0, 0, 0, 0, 0
IMU, 8968930, 0.0042384341400000004, 0.00121649634, 0.00117520976, 0.057794496399999999, -0.35137119900000002, -10.379758799999999, 0, 0, 21.8885212, 1, 1
IMU2, 8968930, 0.00025162758499999997, 0.0021892324999999999, 0.00061907374799999998, 0.17060884800000001, -0.53352618200000002, -9.9427681000000003, 0, 0, 0, 1, 1
BARO, 8969151, -0.0054283160699999996, 50033.445299999999, 22.960000000000001, -0.447805852, 8969, 0
MAG, 8969188, 84, -65, 491, -15, -55, -7, 0, 0, 0, 1, 8969175
MAG2, 8969188, 136, -81, 424, -79, 52, 97, 0, 0, 0, 1, 8969183
CTUN, 8969217, 0, 0.10000000000000001, 2.1400000000000001, 0, -0.35137119900000002
NTUN, 8969230, 5561, 0, 0, 0, 0, 0
RCIN, 8969248, 1486, 1501, 1496, 1501, 1555, 1501, 1500, 1501, 0, 0, 0, 0, 0, 0
RCOU, 8969320, 1486, 1501, 1503, 1501, 1555, 1501, 1500, 1501, 0, 0, 0, 0, 0, 0
VIBE, 8969342, 0.123205446, 0.25882989200000001, 0.22896470099999999, 0, 0, 0
ATT, 8989061, 0, 0.089999999999999997, 0, 2.1400000000000001, 0, 55.590000000000003, 0.32000000000000001, 0.040000000000000001
NKF1, 8989073, 0.01, 1.8100000000000001, 55.909999999999997, 0.0095995347899999993, 0.0099999783599999999, -0.078214712399999997, 0, 0, 0, 0.0204535164, 0, 0, 0
NKF2, 8989073, 0, 0, 0, 0, 0, 0, 113, 24, 488, 0, 0, 0, 0
NKF3, 8989073, 0, 0, 0, 0, 0, -0.16, 0, 0, 0, 0, 0
NKF4, 8989073, 0, 0, 0, 0, 0, 0.80073159900000002, 0, 0, 0, 19, 0, 0, 0
NKF5, 8989073, 0, 0, 0, 0, 0.10000000000000001, 0.20000000000000001, 0, 0, 0.5, 0.0031985912899999999, 0.0129871741, 0.084055721799999997
NKF6, 8989073, 1.1399999999999999, 2.7799999999999998, 56.590000000000003, 0.0018448289500000001, -0.0064433067999999996, 0.030983073600000001, 0, 0, 0, 0.038786191499999997, 0, 0, 0
NKF7, 8989073, 0, 0, 0, 0, 0, 0, 125, 27, 484, 0, 0, 0, 0
NKF8, 8989073, 0, 0, 0, 0, 0, -0.14000000000000001, 0, 0, 0, 0, 0
NKF9, 8989073, 0, 0, 0, 0, 0, 0.79132091999999998, 0, 0, 0, 19, 0, 0, 0
AHR2, 8989415, 0.01, 1.8100000000000001, 55.909999999999997, 0, 0, 53.687823199999997
PIDS, 8989432, 0, 0, 0, 0, 0, 0
PIDA, 8989444, 0, 0, 0, 0, 0, 0
IMU, 8989456, 0.0033014845100000001, 0.00092435989100000005, 3.6805984599999999e-05, 0.0741087198, -0.31327205899999999, -10.3819084, 0, 0, 21.891548199999999, 1, 1
IMU2, 8989456, -0.00068076571900000001, 0.00261476962, -0.00044459482899999997, 0.100696303, -0.49311596200000002, -9.9884147599999995, 0, 0, 0, 1, 1
ATT, 9008810, 0, 0.089999999999999997, 0, 2.1499999999999999, 0, 55.590000000000003, 0.32000000000000001, 0.040000000000000001
NKF1, 9008821, 0.01, 1.8100000000000001, 55.920000000000002, 0.0086606275299999994, 0.011858853500000001, -0.089649103600000002, 0, 0, 0, 0.022916264799999999, 0, 0, 0
NKF2, 9008821, 0, 0, 0, 0, 0, 0, 113, 24, 488, 0, 0, 0, 0
NKF3, 9008821, 0, 0, 0, 0, 0, -0.16, 0, 0, 0, 0, 0
NKF4, 9008821, 0, 0, 0, 0, 0, 0.78471696400000002, 0, 0, 0, 19, 0, 0, 0
NKF5, 9008821, 0, 0, 0, 0, 0.089999999999999997, 0.20000000000000001, 0, 0, 0.5, 0.0034853469100000001, 0.011980417199999999, 0.080818466800000002
NKF6, 9008821, 1.1200000000000001, 2.7799999999999998, 56.590000000000003, 0.0016519578599999999, -0.0051906239199999999, 0.0300649032, 0, 0, 0, 0.044999595699999999, 0, 0, 0
NKF7, 9008821, 0, 0, 0, 0, 0, 0, 125, 27, 484, 0, 0, 0, 0
NKF8, 9008821, 0, 0, 0, 0, 0, -0.14000000000000001, 0, 0, 0, 0, 0
NKF9, 9008821, 0, 0, 0, 0, 0, 0.77466148099999999, 0, 0, 0, 19, 0, 0, 0
AHR2, 9008990, 0.01, 1.8100000000000001, 55.920000000000002, 0, 0, 53.687823199999997
PIDS, 9009007, 0, 0, 0, 0, 0, 0
PIDA, 9009027, 0, 0, 0, 0, 0, 0
IMU, 9009038, 0.0021273565900000002, 0.00055543606900000002, -0.00092776631900000003, 0.048935163800000001, -0.26399880599999997, -10.3879728, 0, 0, 21.894567500000001, 1, 1
IMU2, 9009038, -0.00240942417, 0.0020206123600000001, -0.00133165764, 0.165020838, -0.42150706100000002, -10.007699000000001, 0, 0, 0, 1, 1
MSG, 9009442, GPS 0: detected as u-blox at 38400 baud
GPS, 9009557, 1, 0, 0, 0, 99.989999999999995, 0, 0, 0, 0, 0, 0, 1
GPA, 9009557, 0, 0, 0, 0, 0, 9009
ATT, 9028663, 0, 0.089999999999999997, 0, 2.1499999999999999, 0, 55.590000000000003, 0.32000000000000001, 0.040000000000000001
NKF1, 9028674, 0, 1.8200000000000001, 55.920000000000002, 0.0084726270300000007, 0.0125221303, -0.101356901, 0, 0, 0, 0.025056244799999999, 0, 0, 0
NKF2, 9028674, 0, 0, 0, 0, 0, 0, 113, 24, 488, 0, 0, 0, 0
NKF3, 9028674, 0, 0, 0, 0, 0, -0.16, 0, 0, 0, 0, 0
NKF4, 9028674, 0, 0, 0, 0, 0, 0.76902264399999998, 0, 0, 0, 19, 0, 256, 0
NKF5, 9028674, 0, 0, 0, 0, 0.089999999999999997, 0.20000000000000001, 0, 0, 0.5, 0.0034981211600000001, 0.0109589491, 0.077524915299999997
NKF6, 9028674, 1.1200000000000001, 2.79, 56.590000000000003, 0.0014483907700000001, -0.0054074698100000001, 0.028639946100000001, 0, 0, 0, 0.051157873100000001, 0, 0, 0
NKF7, 9028674, 0, 0, 0, 0, 0, 0, 125, 27, 484, 0, 0, 0, 0
NKF8, 9028674, 0, 0, 0, 0, 0, -0.14000000000000001, 0, 0, 0, 0, 0
NKF9, 9028674, 0, 0, 0, 0, 0, 0.75835281600000004, 0, 0, 0, 19, 0, 256, 0
AHR2, 9028860, 0, 1.8200000000000001, 55.920000000000002, 0, 0, 53.687823199999997
PIDS, 9029002, 0, 0, 0, 0, 0, 0
PIDA, 9029014, 0, 0, 0, 0, 0, 0
IMU, 9029033, 0.0013259291900000001, 0.00042450500800000001, -0.00095135421699999996, 0.013196669499999999, -0.26608073700000001, -10.3819532, 0, 0, 21.897647899999999, 1, 1
IMU2, 9029033, -0.00299970806, 0.0016091330900000001, -0.00149521627, 0.170213059, -0.42406112000000001, -10.030250499999999, 0, 0, 0, 1, 1
ATT, 9049607, 0, 0.089999999999999997, 0, 2.1499999999999999, 0, 55.590000000000003, 0.32000000000000001, 0.040000000000000001
NKF1, 9049618, 0, 1.8200000000000001, 55.93, 0.0093563543599999993, 0.0130756013, -0.113370173, 0, 0, 0, 0.021036388400000001, 0, 0, 0
NKF2, 9049618, 0, 0, 0, 0, 0, 0, 113, 24, 488, 0, 0, 0, 0
NKF3, 9049618, 0, 0, 0, 0, 0, 0.34000000000000002, 0, 0, 0, 0, 0
NKF4, 9049618, 0, 0, 0.01, 0, 0, 0.75364220100000001, 0, 0, 0, 19, 0, 256, 0
NKF5, 9049618, 0, 0, 0, 0, 0.20999999999999999, 0.20000000000000001, 0, 0, 0.5, 0.00355852465, 0.016444467000000001, 0.040713265499999998
NKF6, 9049618, 1.1100000000000001, 2.79, 56.600000000000001, 0.0010268106099999999, -0.0062822829899999997, 0.027441686, 0, 0, 0, 0.050657570399999997, 0, 0, 0
NKF7, 9049618, 0, 0, 0, 0, 0, 0, 125, 27, 484, 0, 0, 0, 0
NKF8, 9049618, 0, 0, 0, 0, 0, 0.37, 0, 0, 0, 0, 0
NKF9, 9049618, 0, 0, 0.02, 0, 0, 0.74238747400000005, 0, 0, 0, 19, 0, 256, 0
AHR2, 9049914, 0, 1.8200000000000001, 55.93, 0, 0, 53.687823199999997
PIDS, 9049966, 0, 0, 0, 0, 0, 0
PIDA, 9049978, 0, 0, 0, 0, 0, 0
IMU, 9049990, 0.00107865804, 0.00046170159500000002, -0.000182008691, 0.0021372481700000002, -0.31809079600000001, -10.3831606, 0, 0, 21.900878899999999, 1, 1
IMU2, 9049990, -0.0037989797999999999, 0.00098683580299999997, -0.00042739254400000001, 0.14790387499999999, -0.470222741, -10.0301867, 0, 0, 0, 1, 1
ATT, 9069231, 0, 0.089999999999999997, 0, 2.1400000000000001, 0, 55.579999999999998, 0.26000000000000001, 0.040000000000000001
NKF1, 9069242, 0, 1.8200000000000001, 55.93, 0.010990825500000001, 0.012609430600000001, -0.125705704, 0, 0, 0, 0.016863141200000001, 0, 0, 0
NKF2, 9069242, 0, 0, 0, 0, 0, 0, 113, 24, 488, 0, 0, 0, 0
NKF3, 9069242, 0, 0, 0, 0, 0, 0.34000000000000002, 0, 0, 0, 0.55000000000000004, 0
NKF4, 9069242, 0, 0, 0.01, 0, 0, 0.73857033299999997, 0, 0, 0, 19, 0, 256, 0
NKF5, 9069242, 0, 0, 0, 0, 0.20999999999999999, 0.20000000000000001, 0, 0, 0.5, 0.0033101970299999998, 0.0158881079, 0.038370288900000001
NKF6, 9069242, 1.1000000000000001, 2.7999999999999998, 56.600000000000001, 0.0037725057900000001, -0.0087774945399999998, 0.025571527, 0, 0, 0, 0.050291243899999998, 0, 0, 0
NKF7, 9069242, 0, 0, 0, 0, 0, 0, 125, 27, 484, 0, 0, 0, 0
NKF8, 9069242, 0, 0, 0, 0, 0, 0.37, 0, 0, 0, 0.58999999999999997, 0
NKF9, 9069242, 0, 0, 0.02, 0, 0, 0.72871458499999997, 0, 0, 0, 19, 0, 256, 0
AHR2, 9069405, 0, 1.8200000000000001, 55.93, 0, 0, 53.687823199999997
PIDS, 9069522, 0, 0, 0, 0, 0, 0
PIDA, 9069534, 0, 0, 0, 0, 0, 0
IMU, 9069545, 0.00121674477, 0.00030555125000000002, 0.00036840350399999999, -0.0034024864400000001, -0.37996333799999998, -10.391757999999999, 0, 0, 21.903955499999999, 1, 1
IMU2, 9069545, -0.0037806557999999998, -0.00015811280199999999, 0.00057112862099999997, 0.120679498, -0.55758273599999997, -9.9940996200000001, 0, 0, 0, 1, 1
BARO, 9069622, 0.132993743, 50032.660199999998, 22.960000000000001, -0.058068197199999998, 9069, 0
MAG, 9069659, 85, -67, 490, -15, -55, -7, 0, 0, 0, 1, 9069646
MAG2, 9069659, 130, -75, 407, -79, 52, 97, 0, 0, 0, 1, 9069653
CTUN, 9069688, 0, 0.089999999999999997, 2.1400000000000001, 0, -0.37996333799999998
NTUN, 9069701, 5558, 0, 0, 0, 0, 0
RCIN, 9069719, 1486, 1501, 1496, 1501, 1555, 1501, 1500, 1501, 0, 0, 0, 0, 0, 0
RCOU, 9069792, 1486, 1501, 1503, 1501, 1555, 1501, 1500, 1501, 0, 0, 0, 0, 0, 0
VIBE, 9069814, 0.071016631999999996, 0.15034169, 0.13186466699999999, 0, 0, 0
ATT, 9088836, 0, 0.089999999999999997, 0, 2.1400000000000001, 0, 55.579999999999998, 0.26000000000000001, 0.029999999999999999
NKF1, 9088848, 0, 1.8200000000000001, 55.920000000000002, 0.0122655816, 0.012994782999999999, -0.138289988, 0, 0, 0, 0.012388234, 0, 0, 0
NKF2, 9088848, 0, 0, 0, 0, 0, 0, 113, 24, 488, 0, 0, 0, 0
NKF3, 9088848, 0, 0, 0, 0, 0, 0.34000000000000002, 0, 0, 0, 0.55000000000000004, 0
NKF4, 9088848, 0, 0, 0.01, 0, 0, 0.72379988399999995, 0, 0, 0, 19, 0, 256, 0
NKF5, 9088848, 0, 0, 0, 0, 0.20999999999999999, 0.20000000000000001, 0, 0, 0.5, 0.0030870167500000002, 0.012771800200000001, 0.036252733299999999
NKF6, 9088848, 1.1100000000000001, 2.79, 56.600000000000001, 0.0057966881399999998, -0.0119976522, 0.0210942384, 0, 0, 0, 0.050092015400000002, 0, 0, 0
NKF7, 9088848, 0, 0, 0, 0, 0, 0, 125, 27, 484, 0, 0, 0, 0
NKF8, 9088848, 0, 0, 0, 0, 0, 0.37, 0, 0, 0, 0.58999999999999997, 0
NKF9, 9088848, 0, 0, 0.02, 0, 0, 0.71529358600000004, 0, 0, 0, 19, 0, 256, 0
AHR2, 9089180, 0, 1.8200000000000001, 55.920000000000002, 0, 0, 53.687823199999997
PIDS, 9089197, 0, 0, 0, 0, 0, 0
PIDA, 9089209, 0, 0, 0, 0, 0, 0
IMU, 9089220, 0.0014808871800000001, 0.00014004582799999999, -2.05988636e-06, 0.00055919092799999997, -0.384673655, -10.393144599999999, 0, 0, 21.907033899999998, 1, 1
IMU2, 9089220, -0.00207435433, -0.0015970457999999999, 0.000948312809, 0.14597949399999999, -0.59873366400000005, -10.0580301, 0, 0, 0, 1, 1
ATT, 9108661, 0, 0.10000000000000001, 0, 2.1400000000000001, 0, 55.57, 0.26000000000000001, 0.029999999999999999
NKF1, 9108673, 0, 1.8300000000000001, 55.909999999999997, 0.013492235, 0.015053492999999999, -0.14950875899999999, 0, 0, 0, 0.0080279028000000002, 0, 0, 0
NKF2, 9108673, 0, 0, 0, 0, 0, 0, 113, 24, 488, 0, 0, 0, 0
NKF3, 9108673, 0, 0, 0, 0, 0, 0.34000000000000002, 0, 0, 0, 0.55000000000000004, 0
NKF4, 9108673, 0, 0, 0.01, 0, 0, 0.70932483700000004, 0, 0, 0, 19, 0, 256, 0
NKF5, 9108673, 0, 0, 0, 0, 0.20999999999999999, 0.20000000000000001, 0, 0, 0.5, 0.0030376822700000001, 0.0120719802, 0.034333173199999997
NKF6, 9108673, 1.1100000000000001, 2.7999999999999998, 56.590000000000003, 0.0069114961699999998, -0.010444235099999999, 0.018586516399999999, 0, 0, 0, 0.050003964499999998, 0, 0, 0
